var radiusLookup = {
    metropoles: 6,
    capitals: 5,
    towns: 4,
    villages: 3,
    waystations: 2
};

var colorLookup = {
    metropoles: "red",
    capitals: "green",
    towns: "blue",
    villages: "yellow",
    waystations: "black"
};

var conditionLookup = {
    0: "grey",
    1: "green",
    2: "red",
    3: "blue",
    4: "yellow",
    5: "black",
    6: "green",
    7: "red",
    8: "blue",
    9: "yellow",
    10: "black",  
};

var places = { data:[
{
    "lat": 31.86252,
    "lon": 34.80861,
    "name": "Aqir",
    "topType": "villages",
    "condition": 1,
    "comment": "This is a comment for display",
    },
{
    "lat": 33.39418,
    "lon": 35.26620,
    "name": "Adhnun ?",
    "topType": "sites",
    "condition": 1,
    "comment": "This is a comment for display",
    },
{
    "lat": 32.92878,
    "lon": 35.07559,
    "name": "Akka",
    "topType": "towns",
    "condition": 1,
    "comment": "This is a comment for display",
    },
{
    "lat": 31.84394,
    "lon": 34.97656,
    "name": "Amawas",
    "topType": "villages",
    "condition": 2,
    "comment": "This is a comment for display",
    },
{
    "lat": 31.93113,
    "lon": 35.91903,
    "name": "Amman",
    "topType": "towns",
    "condition": 2,
    "comment": "This is a comment for display",
    },
{
    "lat": 36.38345,
    "lon": 36.47102,
    "name": "Amq",
    "topType": "waystations",
    "condition": 2,
    "comment": "This is a comment for display",
    },
{
    "lat": 33.88074,
    "lon": 36.18816,
    "name": "Aqabat al-Rumman ?",
    "topType": "waystations",
    "condition": 2,
    "comment": "This is a comment for display",
    },
{
    "lat": 33.86315,
    "lon": 35.89165,
    "name": "Arjamush",
    "topType": "towns",
    "condition": 1,
    "comment": "This is a comment for display",
    },
{
    "lat": 30.08115,
    "lon": 35.19579,
    "name": "Arandal",
    "topType": "towns",
    "condition": 1,
    "comment": "This is a comment for display",
    },
{
    "lat": 34.52991,
    "lon": 36.07300,
    "name": "Arqa",
    "topType": "towns",
    "condition": 1,
    "comment": "This is a comment for display",
    },
{
    "lat": 31.66572,
    "lon": 34.55455,
    "name": "Asqalan",
    "topType": "towns",
    "condition": 1,
    "comment": "This is a comment for display",
    },
{
    "lat": 33.72730,
    "lon": 35.90422,
    "name": "Ayn al-Jarr",
    "topType": "waystations",
    "condition": 1,
    "comment": "This is a comment for display",
    },
{
    "lat": 31.49664,
    "lon": 34.45664,
    "name": "Ghazza",
    "topType": "towns",
    "condition": 1,
    "comment": "This is a comment for display",
    },
{
    "lat": 31.53018,
    "lon": 35.08912,
    "name": "Habra/al-Khalil/Habrun/Masjid Ibrahim",
    "topType": "towns",
    "condition": 1,
    "comment": "This is a comment for display",
    },
{
    "lat": 36.19828,
    "lon": 37.17518,
    "name": "Halab",
    "topType": "capitals",
    "condition": 1,
    "comment": "This is a comment for display",
    },
{
    "lat": 35.12587,
    "lon": 36.76872,
    "name": "Hama",
    "topType": "towns",
    "condition": 1,
    "comment": "This is a comment for display",
    },
{
    "lat": 35.67547,
    "lon": 36.27118,
    "name": "Hisn Barzuya",
    "topType": "fortresse",
    "condition": 1,
    "comment": "This is a comment for display",
    },
{
    "lat": 34.73793,
    "lon": 36.72425,
    "name": "Hims",
    "topType": "capitals",
    "condition": 1,
    "comment": "This is a comment for display",
    },
{
    "lat": 34.26231,
    "lon": 37.10415,
    "name": "Huwarin #?",
    "topType": "sites",
    "condition": 1,
    "comment": "This is a comment for display",
    },
{
    "lat": 33.26921,
    "lon": 35.20796,
    "name": "Sur",
    "topType": "towns",
    "condition": 1,
    "comment": "This is a comment for display",
    },
{
    "lat": 34.31043,
    "lon": 36.93340,
    "name": "Sadad",
    "topType": "waystations",
    "condition": 1,
    "comment": "This is a comment for display",
    },
{
    "lat": 33.45495,
    "lon": 35.28606,
    "name": "Sarafanda",
    "topType": "towns",
    "condition": 1,
    "comment": "This is a comment for display",
    },
{
    "lat": 35.28804,
    "lon": 36.76600,
    "name": "Sawwaran",
    "topType": "regions",
    "condition": 1,
    "comment": "This is a comment for display",
    },
{
    "lat": 33.56642,
    "lon": 35.37475,
    "name": "Sayda",
    "topType": "towns",
    "condition": 1,
    "comment": "This is a comment for display",
    },
{
    "lat": 31.03706,
    "lon": 35.46845,
    "name": "Sughar",
    "topType": "towns",
    "condition": 1,
    "comment": "This is a comment for display",
    },
{
    "lat": 32.77755,
    "lon": 35.51241,
    "name": "Tabariyya",
    "topType": "capitals",
    "condition": 1,
    "comment": "This is a comment for display",
    },
{
    "lat": 36.90807,
    "lon": 34.95529,
    "name": "Tarsus/Antarsus/Antartus",
    "topType": "towns",
    "condition": 1,
    "comment": "This is a comment for display",
    },
{
    "lat": 34.44699,
    "lon": 36.56409,
    "name": "Jusiya",
    "topType": "towns",
    "condition": 1,
    "comment": "This is a comment for display",
    },
{
    "lat": 34.85533,
    "lon": 36.35891,
    "name": "Jabal Jalil",
    "topType": "regions",
    "condition": 1,
    "comment": "This is a comment for display",
    },
{
    "lat": 36.33966,
    "lon": 36.05096,
    "name": "Jabal al-Lukkam",
    "topType": "regions",
    "condition": 1,
    "comment": "This is a comment for display",
    },
{
    "lat": 35.66884,
    "lon": 36.58384,
    "name": "Jabal al-Sumaq",
    "topType": "regions",
    "condition": 1,
    "comment": "This is a comment for display",
    },
{
    "lat": 35.20588,
    "lon": 36.20321,
    "name": "Jabal Bahra",
    "topType": "montagne/region",
    "condition": 1,
    "comment": "This is a comment for display",
    },
{
    "lat": 34.15941,
    "lon": 35.99225,
    "name": "Jabal Lubnan",
    "topType": "regions",
    "condition": 1,
    "comment": "This is a comment for display",
    },
{
    "lat": 33.91260,
    "lon": 36.59718,
    "name": "Jabal Qalamun/Qalamun",
    "topType": "regions",
    "condition": 1,
    "comment": "This is a comment for display",
    },
{
    "lat": 33.45826,
    "lon": 35.81024,
    "name": "Jabal Sanir",
    "topType": "montagne/region",
    "condition": 1,
    "comment": "This is a comment for display",
    },
{
    "lat": 35.36567,
    "lon": 35.95309,
    "name": "Jabala",
    "topType": "towns",
    "condition": 1,
    "comment": "This is a comment for display",
    },
{
    "lat": 33.81588,
    "lon": 36.74014,
    "name": "Jarud",
    "topType": "waystations",
    "condition": 1,
    "comment": "This is a comment for display",
    },
{
    "lat": 36.81562,
    "lon": 38.00577,
    "name": "Jarabulus",
    "topType": "towns",
    "condition": 1,
    "comment": "This is a comment for display",
    },
{
    "lat": 34.12764,
    "lon": 35.65206,
    "name": "Jubayl",
    "topType": "towns",
    "condition": 1,
    "comment": "This is a comment for display",
    },
{
    "lat": 33.98398,
    "lon": 35.61897,
    "name": "Juniyya",
    "topType": "towns",
    "condition": 1,
    "comment": "This is a comment for display",
    },
{
    "lat": 34.53863,
    "lon": 36.74279,
    "name": "Shamsin",
    "topType": "waystations",
    "condition": 1,
    "comment": "This is a comment for display",
    },
{
    "lat": 35.25585,
    "lon": 36.55938,
    "name": "Shayzar",
    "topType": "towns",
    "condition": 1,
    "comment": "This is a comment for display",
    },
{
    "lat": 36.08630,
    "lon": 37.69991,
    "name": "Khushaf",
    "topType": "towns",
    "condition": 1,
    "comment": "This is a comment for display",
    },
{
    "lat": 34.44044,
    "lon": 35.85194,
    "name": "Atrabulus/Tarabulus",
    "topType": "towns",
    "condition": 1,
    "comment": "This is a comment for display",
    },
{
    "lat": 36.96023,
    "lon": 35.34272,
    "name": "Adhana",
    "topType": "sites",
    "condition": 1,
    "comment": "This is a comment for display",
    },
{
    "lat": 30.33962,
    "lon": 35.75502,
    "name": "Adhruh",
    "topType": "capitals",
    "condition": 1,
    "comment": "This is a comment for display",
    },
{
    "lat": 32.61046,
    "lon": 36.09087,
    "name": "Adhriat",
    "topType": "capitals",
    "condition": 1,
    "comment": "This is a comment for display",
    },
{
    "lat": 33.50849,
    "lon": 36.44363,
    "name": "al-Ghuta",
    "topType": "regions",
    "condition": 1,
    "comment": "This is a comment for display",
    },
{
    "lat": 31.86882,
    "lon": 35.48149,
    "name": "al-Ghawr",
    "topType": "sites",
    "condition": 1,
    "comment": "This is a comment for display",
    },
{
    "lat": 32.65059,
    "lon": 36.73153,
    "name": "al-Hawran",
    "topType": "regions",
    "condition": 1,
    "comment": "This is a comment for display",
    },
{
    "lat": 32.97543,
    "lon": 35.63816,
    "name": "al-Hula",
    "topType": "regions",
    "condition": 1,
    "comment": "This is a comment for display",
    },
{
    "lat": 33.09084,
    "lon": 35.79833,
    "name": "al-Jawlan",
    "topType": "regions",
    "condition": 1,
    "comment": "This is a comment for display",
    },
{
    "lat": 30.59382,
    "lon": 35.77450,
    "name": "al-Sharat",
    "topType": "circon",
    "condition": 1,
    "comment": "This is a comment for display",
    },
{
    "lat": 35.78031,
    "lon": 37.50551,
    "name": "al-Khunasira",
    "topType": "towns",
    "condition": 1,
    "comment": "This is a comment for display",
    },
{
    "lat": 35.31245,
    "lon": 36.62191,
    "name": "al-Atmin/al-Latmin",
    "topType": "villages",
    "condition": 1,
    "comment": "This is a comment for display",
    },
{
    "lat": 36.13792,
    "lon": 36.83533,
    "name": "al-Atharib",
    "topType": "waystations",
    "condition": 1,
    "comment": "This is a comment for display",
    },
{
    "lat": 35.68430,
    "lon": 36.54442,
    "name": "al-Bara ?",
    "topType": "villages",
    "condition": 1,
    "comment": "This is a comment for display",
    },
{
    "lat": 32.72189,
    "lon": 36.15837,
    "name": "al-Bathaniyya",
    "topType": "regions",
    "condition": 1,
    "comment": "This is a comment for display",
    },
{
    "lat": 32.08487,
    "lon": 35.96379,
    "name": "al-Balqa",
    "topType": "regions",
    "condition": 1,
    "comment": "This is a comment for display",
    },
{
    "lat": 33.83512,
    "lon": 35.92143,
    "name": "al-Biqa",
    "topType": "regions",
    "condition": 1,
    "comment": "This is a comment for display",
    },
{
    "lat": 35.52404,
    "lon": 38.31435,
    "name": "al-Butlamiyya/al-Khirba ?",
    "topType": "waystations",
    "condition": 1,
    "comment": "This is a comment for display",
    },
{
    "lat": 33.64139,
    "lon": 36.02468,
    "name": "al-Fija",
    "topType": "waters",
    "condition": 1,
    "comment": "This is a comment for display",
    },
{
    "lat": 32.92323,
    "lon": 36.04321,
    "name": "al-Jabiya",
    "topType": "villages",
    "condition": 1,
    "comment": "This is a comment for display",
    },
{
    "lat": 33.03094,
    "lon": 35.45020,
    "name": "al-Jashsh",
    "topType": "villages",
    "condition": 1,
    "comment": "This is a comment for display",
    },
{
    "lat": 30.26155,
    "lon": 35.32238,
    "name": "al-Jibal",
    "topType": "regions",
    "condition": 1,
    "comment": "This is a comment for display",
    },
{
    "lat": 32.74750,
    "lon": 34.95381,
    "name": "al-Kanisa",
    "topType": "villages",
    "condition": 1,
    "comment": "This is a comment for display",
    },
{
    "lat": 31.20812,
    "lon": 35.04078,
    "name": "al-Kusayfa",
    "topType": "waystations",
    "condition": 1,
    "comment": "This is a comment for display",
    },
{
    "lat": 33.35826,
    "lon": 36.23184,
    "name": "al-Kuswa",
    "topType": "waystations",
    "condition": 1,
    "comment": "This is a comment for display",
    },
{
    "lat": 35.51961,
    "lon": 35.80763,
    "name": "al-Ladhiqiyya",
    "topType": "towns",
    "condition": 1,
    "comment": "This is a comment for display",
    },
{
    "lat": 32.60823,
    "lon": 35.27017,
    "name": "al-Lajjun",
    "topType": "towns",
    "condition": 1,
    "comment": "This is a comment for display",
    },
{
    "lat": 34.42297,
    "lon": 36.42642,
    "name": "al-Maqlub",
    "topType": "waters",
    "condition": 1,
    "comment": "This is a comment for display",
    },
{
    "lat": 36.94067,
    "lon": 35.66897,
    "name": "al-Missisa",
    "topType": "place-forte",
    "condition": 1,
    "comment": "This is a comment for display",
    },
{
    "lat": 33.77683,
    "lon": 35.46741,
    "name": "al-Naima",
    "topType": "towns",
    "condition": 1,
    "comment": "This is a comment for display",
    },
{
    "lat": 34.02567,
    "lon": 36.73220,
    "name": "al-Nabk",
    "topType": "waystations",
    "condition": 1,
    "comment": "This is a comment for display",
    },
{
    "lat": 33.57083,
    "lon": 35.71229,
    "name": "al-Qarun",
    "topType": "waystations",
    "condition": 1,
    "comment": "This is a comment for display",
    },
{
    "lat": 34.22510,
    "lon": 37.24976,
    "name": "al-Qaryatan",
    "topType": "waystations",
    "condition": 1,
    "comment": "This is a comment for display",
    },
{
    "lat": 35.06025,
    "lon": 37.57892,
    "name": "al-Qastal",
    "topType": "waystations",
    "condition": 1,
    "comment": "This is a comment for display",
    },
{
    "lat": 33.74546,
    "lon": 36.60247,
    "name": "al-Qutayyifa",
    "topType": "waystations",
    "condition": 1,
    "comment": "This is a comment for display",
    },
{
    "lat": 31.92484,
    "lon": 34.86436,
    "name": "al-Ramla",
    "topType": "capitals",
    "condition": 1,
    "comment": "This is a comment for display",
    },
{
    "lat": 31.89279,
    "lon": 35.96419,
    "name": "al-Raqim/al-Raqam",
    "topType": "villages",
    "condition": 1,
    "comment": "This is a comment for display",
    },
{
    "lat": 35.64344,
    "lon": 38.78470,
    "name": "al-Rusafa",
    "topType": "waystations",
    "condition": 1,
    "comment": "This is a comment for display",
    },
{
    "lat": 31.56416,
    "lon": 34.65335,
    "name": "al-Sukkariyya ?",
    "topType": "villages",
    "condition": 1,
    "comment": "This is a comment for display",
    },
{
    "lat": 36.08960,
    "lon": 35.99387,
    "name": "al-Suwaydiyya",
    "topType": "towns",
    "condition": 1,
    "comment": "This is a comment for display",
    },
{
    "lat": 32.07029,
    "lon": 36.08689,
    "name": "al-Zarqa ?",
    "topType": "waystations",
    "condition": 1,
    "comment": "This is a comment for display",
    },
{
    "lat": 36.19718,
    "lon": 36.18418,
    "name": "Antakiyya",
    "topType": "towns",
    "condition": 1,
    "comment": "This is a comment for display",
    },
{
    "lat": 34.89985,
    "lon": 35.90356,
    "name": "Antartus/Antarsus/Tartus",
    "topType": "towns",
    "condition": 1,
    "comment": "This is a comment for display",
    },
{
    "lat": 34.35634,
    "lon": 35.73678,
    "name": "Anafa",
    "topType": "towns",
    "condition": 1,
    "comment": "This is a comment for display",
    },
{
    "lat": 32.19588,
    "lon": 34.80739,
    "name": "Arsuf",
    "topType": "towns",
    "condition": 1,
    "comment": "This is a comment for display",
    },
{
    "lat": 29.54282,
    "lon": 34.93982,
    "name": "Ayla/Wayla",
    "topType": "towns",
    "condition": 1,
    "comment": "This is a comment for display",
    },
{
    "lat": 31.79837,
    "lon": 34.66817,
    "name": "Azdud/Yazdud",
    "topType": "sites",
    "condition": 1,
    "comment": "This is a comment for display",
    },
{
    "lat": 36.02806,
    "lon": 38.09005,
    "name": "Balis",
    "topType": "towns",
    "condition": 1,
    "comment": "This is a comment for display",
    },
{
    "lat": 33.25150,
    "lon": 35.67787,
    "name": "Baniyas",
    "topType": "towns",
    "condition": 1,
    "comment": "This is a comment for display",
    },
{
    "lat": 34.71618,
    "lon": 36.32185,
    "name": "Buqa",
    "topType": "circon",
    "condition": 1,
    "comment": "This is a comment for display",
    },
{
    "lat": 34.01251,
    "lon": 36.19213,
    "name": "Balabakk",
    "topType": "towns",
    "condition": 1,
    "comment": "This is a comment for display",
    },
{
    "lat": 36.41518,
    "lon": 36.22768,
    "name": "Baghras",
    "topType": "villages",
    "condition": 1,
    "comment": "This is a comment for display",
    },
{
    "lat": 34.25903,
    "lon": 35.67059,
    "name": "Bathrun",
    "topType": "sites",
    "condition": 1,
    "comment": "This is a comment for display",
    },
{
    "lat": 33.90162,
    "lon": 35.50910,
    "name": "Bayrut",
    "topType": "towns",
    "condition": 1,
    "comment": "This is a comment for display",
    },
{
    "lat": 32.50000,
    "lon": 35.49256,
    "name": "Baysan",
    "topType": "towns",
    "condition": 1,
    "comment": "This is a comment for display",
    },
{
    "lat": 31.77768,
    "lon": 35.20345,
    "name": "Bayt al-Maqdis/al-Quds/Iliya",
    "topType": "towns",
    "condition": 1,
    "comment": "This is a comment for display",
    },
{
    "lat": 31.80167,
    "lon": 35.60287,
    "name": "Bayt al-Ram/Bayt Rama/Bayt al-Ras",
    "topType": "villages",
    "condition": 1,
    "comment": "This is a comment for display",
    },
{
    "lat": 31.60564,
    "lon": 34.88059,
    "name": "Bayt Jibril/Bayt Jibrin",
    "topType": "towns",
    "condition": 1,
    "comment": "This is a comment for display",
    },
{
    "lat": 31.70926,
    "lon": 35.18792,
    "name": "Bayt Lahm",
    "topType": "villages",
    "condition": 1,
    "comment": "This is a comment for display",
    },
{
    "lat": 36.75139,
    "lon": 36.23856,
    "name": "Bayyas",
    "topType": "towns",
    "condition": 1,
    "comment": "This is a comment for display",
    },
{
    "lat": 32.80982,
    "lon": 35.57727,
    "name": "Buhayrat Tabariyya",
    "topType": "waters",
    "condition": 1,
    "comment": "This is a comment for display",
    },
{
    "lat": 31.38450,
    "lon": 35.46173,
    "name": "Buhayrat al-Muntina/Buhayrat al-Maqluba/Buhayrat al-Miyyata/Buhayrat al-Sughar",
    "topType": "waters",
    "condition": 1,
    "comment": "This is a comment for display",
    },
{
    "lat": 33.06755,
    "lon": 35.59845,
    "name": "Buhayrat Qadas",
    "topType": "waters",
    "condition": 1,
    "comment": "This is a comment for display",
    },
{
    "lat": 32.50000,
    "lon": 36.47474,
    "name": "Busra",
    "topType": "towns",
    "condition": 1,
    "comment": "This is a comment for display",
    },
{
    "lat": 35.18256,
    "lon": 35.97212,
    "name": "Bulunyas ?",
    "topType": "towns",
    "condition": 1,
    "comment": "This is a comment for display",
    },
{
    "lat": 33.46544,
    "lon": 36.23184,
    "name": "Darayya",
    "topType": "villages",
    "condition": 1,
    "comment": "This is a comment for display",
    },
{
    "lat": 35.92575,
    "lon": 38.49243,
    "name": "Dawsar",
    "topType": "waystations",
    "condition": 1,
    "comment": "This is a comment for display",
    },
{
    "lat": 33.51843,
    "lon": 36.30199,
    "name": "Dimashq",
    "topType": "metropoles",
    "condition": 1,
    "comment": "This is a comment for display",
    },
{
    "lat": 35.41665,
    "lon": 36.40440,
    "name": "Famiyya",
    "topType": "towns",
    "condition": 1,
    "comment": "This is a comment for display",
    },
{
    "lat": 35.66663,
    "lon": 35.80083,
    "name": "Fasira/Kasira/Qasira ?",
    "topType": "villages",
    "condition": 1,
    "comment": "This is a comment for display",
    },
{
    "lat": 32.77421,
    "lon": 35.67655,
    "name": "Aqabat al-Fiq/Afiq/Fiq",
    "topType": "sites",
    "condition": 1,
    "comment": "This is a comment for display",
    },
{
    "lat": 32.43634,
    "lon": 35.61434,
    "name": "Fahl",
    "topType": "circon",
    "condition": 1,
    "comment": "This is a comment for display",
    },
{
    "lat": 34.87271,
    "lon": 36.93472,
    "name": "Faraya ?",
    "topType": "waystations",
    "condition": 1,
    "comment": "This is a comment for display",
    },
{
    "lat": 36.57473,
    "lon": 36.19234,
    "name": "Iskandaruna/Iskandariya",
    "topType": "towns",
    "condition": 1,
    "comment": "This is a comment for display",
    },
{
    "lat": 32.98099,
    "lon": 36.04321,
    "name": "Jasim",
    "topType": "waystations",
    "condition": 1,
    "comment": "This is a comment for display",
    },
{
    "lat": 32.92434,
    "lon": 35.52565,
    "name": "Jubb Yusuf",
    "topType": "villages",
    "condition": 1,
    "comment": "This is a comment for display",
    },
{
    "lat": 32.27309,
    "lon": 35.88040,
    "name": "Jurash",
    "topType": "towns",
    "condition": 1,
    "comment": "This is a comment for display",
    },
{
    "lat": 32.86543,
    "lon": 35.21458,
    "name": "Kabul",
    "topType": "villages",
    "condition": 1,
    "comment": "This is a comment for display",
    },
{
    "lat": 35.50744,
    "lon": 36.61239,
    "name": "Kafartab",
    "topType": "villages",
    "condition": 1,
    "comment": "This is a comment for display",
    },
{
    "lat": 32.17778,
    "lon": 34.88134,
    "name": "Kafarsaba",
    "topType": "villages",
    "condition": 1,
    "comment": "This is a comment for display",
    },
{
    "lat": 31.17824,
    "lon": 35.69038,
    "name": "Karak",
    "topType": "villages",
    "condition": 1,
    "comment": "This is a comment for display",
    },
{
    "lat": 34.19007,
    "lon": 36.33244,
    "name": "Labwa",
    "topType": "villages",
    "condition": 1,
    "comment": "This is a comment for display",
    },
{
    "lat": 31.95598,
    "lon": 34.88482,
    "name": "Ludd",
    "topType": "villages",
    "condition": 1,
    "comment": "This is a comment for display",
    },
{
    "lat": 31.81276,
    "lon": 34.63712,
    "name": "Mahuz Azdud",
    "topType": "sites",
    "condition": 1,
    "comment": "This is a comment for display",
    },
{
    "lat": 31.87811,
    "lon": 34.66888,
    "name": "Mahuz Yubna",
    "topType": "sites",
    "condition": 1,
    "comment": "This is a comment for display",
    },
{
    "lat": 31.50145,
    "lon": 34.42276,
    "name": "Mimas",
    "topType": "towns",
    "condition": 1,
    "comment": "This is a comment for display",
    },
{
    "lat": 31.25790,
    "lon": 35.73272,
    "name": "Maab",
    "topType": "towns",
    "condition": 1,
    "comment": "This is a comment for display",
    },
{
    "lat": 30.19664,
    "lon": 35.72442,
    "name": "Maan/Muan",
    "topType": "towns",
    "condition": 1,
    "comment": "This is a comment for display",
    },
{
    "lat": 35.64344,
    "lon": 36.69124,
    "name": "Maarrat al-Numan",
    "topType": "towns",
    "condition": 1,
    "comment": "This is a comment for display",
    },
{
    "lat": 36.01376,
    "lon": 36.69667,
    "name": "Maarrat Qinnasrin",
    "topType": "towns",
    "condition": 1,
    "comment": "This is a comment for display",
    },
{
    "lat": 33.22604,
    "lon": 35.43299,
    "name": "Majdal Salim",
    "topType": "villages",
    "condition": 1,
    "comment": "This is a comment for display",
    },
{
    "lat": 33.22659,
    "lon": 36.14580,
    "name": "Marj al-Suffar",
    "topType": "sites",
    "condition": 1,
    "comment": "This is a comment for display",
    },
{
    "lat": 33.60226,
    "lon": 36.50981,
    "name": "Marj Rahit",
    "topType": "sites",
    "condition": 1,
    "comment": "This is a comment for display",
    },
{
    "lat": 35.04801,
    "lon": 35.91774,
    "name": "Maraqiyya",
    "topType": "villages",
    "condition": 1,
    "comment": "This is a comment for display",
    },
{
    "lat": 31.06466,
    "lon": 35.68544,
    "name": "Muta",
    "topType": "villages",
    "condition": 1,
    "comment": "This is a comment for display",
    },
{
    "lat": 32.22047,
    "lon": 35.24238,
    "name": "Nabulus",
    "topType": "towns",
    "condition": 1,
    "comment": "This is a comment for display",
    },
{
    "lat": 36.79276,
    "lon": 35.58877,
    "name": "Jayhan",
    "topType": "waters",
    "condition": 1,
    "comment": "This is a comment for display",
    },
{
    "lat": 35.81449,
    "lon": 38.38504,
    "name": "al-Furat",
    "topType": "waters",
    "condition": 1,
    "comment": "This is a comment for display",
    },
{
    "lat": 32.15774,
    "lon": 35.56271,
    "name": "al-Urdunn",
    "topType": "waters",
    "condition": 1,
    "comment": "This is a comment for display",
    },
{
    "lat": 35.99287,
    "lon": 36.42208,
    "name": "al-Urunt/al-Urund",
    "topType": "waters",
    "condition": 1,
    "comment": "This is a comment for display",
    },
{
    "lat": 33.48862,
    "lon": 36.47275,
    "name": "Barada",
    "topType": "waters",
    "condition": 1,
    "comment": "This is a comment for display",
    },
{
    "lat": 36.29913,
    "lon": 37.22956,
    "name": "Quwayq",
    "topType": "waters",
    "condition": 1,
    "comment": "This is a comment for display",
    },
{
    "lat": 36.80583,
    "lon": 35.28698,
    "name": "Sayhan",
    "topType": "waters",
    "condition": 1,
    "comment": "This is a comment for display",
    },
{
    "lat": 32.88099,
    "lon": 36.02865,
    "name": "Nawa",
    "topType": "towns",
    "condition": 1,
    "comment": "This is a comment for display",
    },
{
    "lat": 34.45245,
    "lon": 37.38213,
    "name": "Nihya ?",
    "topType": "waystations",
    "condition": 1,
    "comment": "This is a comment for display",
    },
{
    "lat": 34.16598,
    "lon": 36.84868,
    "name": "Qara",
    "topType": "waystations",
    "condition": 1,
    "comment": "This is a comment for display",
    },
{
    "lat": 36.72960,
    "lon": 36.94952,
    "name": "Qurus",
    "topType": "towns",
    "condition": 1,
    "comment": "This is a comment for display",
    },
{
    "lat": 33.12189,
    "lon": 35.49123,
    "name": "Qadas",
    "topType": "towns",
    "condition": 1,
    "comment": "This is a comment for display",
    },
{
    "lat": 32.29512,
    "lon": 34.98155,
    "name": "Qalansuwa",
    "topType": "villages",
    "condition": 1,
    "comment": "This is a comment for display",
    },
{
    "lat": 33.36423,
    "lon": 35.56778,
    "name": "Qaryat al-Uyun",
    "topType": "waystations",
    "condition": 1,
    "comment": "This is a comment for display",
    },
{
    "lat": 32.49326,
    "lon": 34.89906,
    "name": "Qaysariyya",
    "topType": "towns",
    "condition": 1,
    "comment": "This is a comment for display",
    },
{
    "lat": 35.99617,
    "lon": 37.02701,
    "name": "Qinnasrin",
    "topType": "capitals",
    "condition": 1,
    "comment": "This is a comment for display",
    },
{
    "lat": 31.30870,
    "lon": 34.25897,
    "name": "Rafh",
    "topType": "waystations",
    "condition": 1,
    "comment": "This is a comment for display",
    },
{
    "lat": 34.93133,
    "lon": 36.41054,
    "name": "Rafaniyya",
    "topType": "towns",
    "condition": 1,
    "comment": "This is a comment for display",
    },
{
    "lat": 34.93350,
    "lon": 36.75337,
    "name": "Rastan",
    "topType": "towns",
    "condition": 1,
    "comment": "This is a comment for display",
    },
{
    "lat": 31.86043,
    "lon": 35.43774,
    "name": "Riha/Ariha",
    "topType": "towns",
    "condition": 1,
    "comment": "This is a comment for display",
    },

{
    "lat": 32.27085,
    "lon": 35.15237,
    "name": "Sabastiya",
    "topType": "villages",
    "condition": 1,
    "comment": "This is a comment for display",
    },
{
    "lat": 35.00401,
    "lon": 37.07106,
    "name": "Salamiyya",
    "topType": "towns",
    "condition": 1,
    "comment": "This is a comment for display",
    },
{
    "lat": 35.89492,
    "lon": 36.72250,
    "name": "Sarmin",
    "topType": "villages",
    "condition": 1,
    "comment": "This is a comment for display",
    },
{
    "lat": 32.69627,
    "lon": 36.55945,
    "name": "Suwayda",
    "topType": "villages",
    "condition": 1,
    "comment": "This is a comment for display",
    },
{
    "lat": 36.86458,
    "lon": 36.16107,
    "name": "Tinat/Hisn al-Tinat",
    "topType": "sites",
    "condition": 1,
    "comment": "This is a comment for display",
    },
{
    "lat": 36.23776,
    "lon": 36.70483,
    "name": "Tizin/Tuzin",
    "topType": "towns",
    "condition": 1,
    "comment": "This is a comment for display",
    },
{
    "lat": 32.33910,
    "lon": 35.38269,
    "name": "Taasir",
    "topType": "waystations",
    "condition": 1,
    "comment": "This is a comment for display",
    },
{
    "lat": 34.54735,
    "lon": 38.28754,
    "name": "Tadmur",
    "topType": "towns",
    "condition": 1,
    "comment": "This is a comment for display",
    },
{
    "lat": 35.63129,
    "lon": 36.74697,
    "name": "Tall Mannas",
    "topType": "regions",
    "condition": 1,
    "comment": "This is a comment for display",
    },

{
    "lat": 32.06237,
    "lon": 34.75362,
    "name": "Yafa",
    "topType": "towns",
    "condition": 1,
    "comment": "This is a comment for display",
    },
{
    "lat": 31.87092,
    "lon": 34.73521,
    "name": "Yubna",
    "topType": "villages",
    "condition": 1,
    "comment": "This is a comment for display",
    },
{
    "lat": 33.73115,
    "lon": 36.08756,
    "name": "Zabadani",
    "topType": "villages",
    "condition": 1,
    "comment": "This is a comment for display",
    },

]}
